id_pictograph,latitude,longitude,img_path,name_pictograph,additional_information
1,59.216128,39.885394,Вологда_Дума.png,Администрация губернатора,
2,59.224020,39.882904,Вологда_Кремль.png,Архиерейский двор,
3,59.206982,39.882612,Вологда_Вокзал.png,Вокзал,
4,59.213722,39.885298,Вологда_Динамо.png,Динамо,
5,59.203867,39.838644,Вологда_ДКПЗ.png,ДКПЗ,